[{"name":"Friendly Tails Pet Clinic","location":"No-3472, Ground Floor, Manjnatha Nagar, Raghunalli, Bangalore - 560062, Oppt Liberty Square Appt","phone":"XX91XX9152153463"},{"name":"Vet Care Pet Clinic","location":"#239, 9th Cross,, Manjunath Nagar, Rajajinagar, Bangalore - 560010, Behind Goutham College","phone":"XX91XX9152344452"},{"name":"Cessna Lifeline Veterinary ..","location":"No.148, HCBS Amarjyothi Layout, Domlur, Bangalore - 560071, Near Fiat Showroom, Off Intermediate Ring Road","phone":"XX91XX9152929855"},{"name":"Cancure Pet Clinic","location":"No 220/11, Hennur Main Road, Kacharakanahalli, Bangalore - 560084","phone":"XX91XX9152405799"},{"name":"Cessna Lifeline Veterinary ..","location":"No.93, First Floor, Hosur Main Road, Kudlu Gate, Srinivasa Nagar, Singasandra, Bangalore - 560068, Beside SBI Bank","phone":"XX91XX9152171914"},{"name":"Precise Pet Clinic","location":"No.485 & 486, 8th Cross,Jeevan Bheema Nagar Main Road,Hal 3rd Stage, Jeevan Bima Nagar, Bangalore - 560075, Near TVS Showroom","phone":"XX91XX9152387452"},{"name":"Renee Vet Hospital","location":"No 30/31, 1st Floor, Kothanur Main Road, Jp Nagar 8th Phase, Bangalore - 560076, Near BK Circle","phone":"XX91XX9152348529"},{"name":"D Veterinary Clinic","location":"No.4/7,No.298, Sri Lakshmi Narasimhaswamy Nilaya, 10th Main,10 Cross,Hennur Circle,5th Block,60 Feet Road, Hrbr Layout, Bangalore - 560043, Near Indian Academy P U Collge,Beside to Organic Farm Shop,","phone":"XX91XX9152335866"},{"name":"Prajna Veterinary Clinic","location":"No 506, 5th Main Road,4th Cross,2nd Block, Banashankari 3rd Stage, Bangalore - 560085, Near Katriguppa Water Tank","phone":"XX91XX080X26699415"},{"name":"AARON PET Clinic-visiting V..","location":"971/9 15th A cross, Sector A, Yelahanka New Town, Bangalore - 560064, Near grub restaurant","phone":"XX91XX9152336217"},{"name":"Dr Shaswath Kumar","location":"No 1851, 26th Main, 40th A Cross, Jayanagar 9th Block, Bangalore - 560069","phone":"XX91XX9152833063"},{"name":"Gn Reddy Pet Clinic","location":"No 4&5, GNR Building, 17th Cross, 2nd Main, Rajeev Gandhi Nagar, HSR Layout Sector 7, Bangalore - 560068, Between  Aqsa Masjid & 6th Sector Park, Near Bda Complex","phone":"XX91XX9742024365"},{"name":"Krishna Vet & Pet Clinic","location":"No 4,Jayanna Complex, Jigala Road, Attibele, Bangalore - 562107, Sarjapur Road","phone":"XX91XX9152217834"},{"name":"Bangalore Pet Hospital","location":"No.5ac -905, HRBR LAYOUT,2nd block, Kalyan Nagar, Bangalore - 560043, Hennur Garden","phone":"XX91XX9152216626"},{"name":"Westend Veterinary Hospital","location":"No 9, 14th Main, Mico Layout, West Of Chord Road, Mahalakshmipuram Layout, Bangalore - 560086","phone":"XX91XX9152784086"},{"name":"Beethoven","location":"No 56 Ground Floor Langford Road, Richmond Town, Bangalore - 560025, Near nanjappa circle or below body science salon","phone":"XX91XX9152863903"},{"name":"Wagging Tail Pet Care","location":"No.17, 17th E Cross, Indiranagar, Bangalore - 560038, Next Kottakkal Arya Vaidyasala","phone":"XX91XX9152471011"},{"name":"Park Side Pet Clinic And Pe..","location":"No.3c-201, Ground Floor, 2nd Main, Kasturi Nagar, Bangalore - 560043, Behind Five Star Chicken","phone":"XX91XX9152343664"},{"name":"Jeeva Veterinary Hospital","location":"No 52/A, 9th Cross, 1st Phase, Jp Nagar, Bangalore - 560078, Opposite Aurobindo Ashram, Near Rv Dental College","phone":"XX91XX9152356310"},{"name":"St Antonys Pet Clinic And P..","location":"Ananthnagar Main Road, Electronic City, Bangalore - 560100, Near Axis Bank ATM And Huskur Gate","phone":"XX91XX9152357747"},{"name":"Pet Point","location":"No 224, 4th A Cross, Jakkur Layout, Yelahanka, Bangalore - 560064, Near Medplus Building","phone":"XX91XX7026424424"},{"name":"Vets On Wheels","location":"No 20,Venkatesh Swamy Nila, Horamavu,Prakruthi Layout,10th Cross, Banaswadi, Bangalore - 560043, Opposite Ganesh Medical,Near Railway Gate","phone":"XX91XX9152471057"},{"name":"Sai Pet Lifeline","location":"No 112  Manjunatha Complex, Anjana Nagar, Magadi Main Road-Vijaynagar, Bangalore - 560091, Above Manipuram Gold Loan","phone":"XX91XX9152324168"},{"name":"K A S Veterinary Medical Ce..","location":"No.35, 2nd Cross, Yelahanka New Town, Bangalore - 560064, Opposite Government School","phone":"XX91XX9152326397"},{"name":"Shreedha Pet Hub And Pet Cl..","location":"No 289, 60 Feet Road,Health and Family Wellfare Layout,Annapoorneshwari Nagar, Nagarbhavi 2nd Stage, Bangalore - 560072, Near Kamlesh House","phone":"XX91XX9152305731"},{"name":"Lakeside Veterinary Clinic ..","location":"No.21/83, Ramachandra Arcade, South End Road, Basavanagudi, Bangalore - 560004, Below Balaji Medicals","phone":"XX91XX80X26608668"},{"name":"Anu Pet Clinic","location":"No 3 , 2 F Cross 3rd E Main , Ramaiah Layout, Kammanahalli, Bangalore - 560084, Near to Raidan Restaurant","phone":"XX91XX9035301166"},{"name":"Happy Pet Clinic","location":"No 54, 2nd Main 4th Cross Yalenahalli Road, Hulimavu, Bangalore - 560076, Beside DLF East","phone":"XX91XX9880551379"},{"name":"Neha Veterinary Clinic","location":"No 12 and 16, 8th B Cross, Yelahanka New Town, Bangalore - 560064, Near KHB Commercial Complex and Newtown Shopping Complex","phone":"XX91XX7899833390"},{"name":"Cupa Animal Care Clinic","location":"No.4, Old No.39/1, 1st Main, New Devegowda Road, Thimmaiah Garden, Rt Nagar, Bangalore - 560032, Opposite Thimmaiah Garden Bus Stop","phone":"XX91XX9108855888"},{"name":"Maruthi Pet Care Centre","location":"No: 29/30/31, Malagala Service Road, Nagarbhavi 2nd Stage, Bangalore - 560091, Beside Durga Sri Grand","phone":"XX91XX080X29778602"},{"name":"V Care Pet Polyclinic","location":"No.15, 1st Main, 1st Block, Koramangala, Bangalore - 560034, Near Kabab Magic Restaurant","phone":"XX91XX8147006342"},{"name":"Rmv Multi Speciality Veteri..","location":"No.477, 5th Main,Dollars Colony, Rmv Extension 2nd Stage, Bangalore - 560094, Near Devsandra Bus Stand,","phone":"XX91XX80X23410026"},{"name":"Bozo Wags LLP","location":"No. 73/220, Shop No 1, Ganapati Complex, 2nd Cross,, Yellanahalli, Bangalore - 560068, Spectra Diagnostics","phone":"XX91XX9036660660"},{"name":"Dr. Ravis Pet Clinic","location":"No. 32,  4th Temple Street, 15th Cross, Malleswaram, Bangalore - 560003, Near Kadi Malleswaram Temple","phone":"XX91XX9964143115"},{"name":"Yours Pet Vet Clinic","location":"Shop No. 1, Reliable Residency Layout, Somaaundrapalya, HSR Layout Sector 2, Bangalore - 560102, OPP. To Vibgyor High School","phone":"XX91XX7204522768"},{"name":"Sai Pet Clinic","location":"No.  1216, 1st Block, Nanajappa Main Road, Vidyaranyapura, Bangalore - 560097, Next to Apollo Clinic, Opposite  Jodidar Club","phone":"XX91XX8513968290"},{"name":"Dr. Revathis Pet Clinic","location":"No.668, Shantiniketan Main Road, Bannerghatta Road, Bangalore - 560076, Opposite Ravindra Bharati Global School","phone":"XX91XX9880710569"},{"name":"Blue Cross Veterinary Solut..","location":"No. 179, 9th Main, 1st Block, Hrbr Layout, Bangalore - 560043, Near Euro Kids School","phone":""},{"name":"Tom Terry Pet Clinic","location":"No.21, Bannerghatta Main Road, 1st Main Road,  Mico  Layout, BTM Layout 2nd Stage, Bangalore - 560076, Near Bank Of Maharastra, Opposite Gopalan Mall","phone":"XX91XX80X41550216"},{"name":"My Pets Choice The Companio..","location":"No. 195/A , First Floor, 22nd Cross, Hsr Layout Sector 3, Bangalore - 560102, Opposite to Hsr Club","phone":"XX91XX8971112131"},{"name":"Government Veterinary Hospi..","location":"Rajaji Nagar, 3rd Block, Rajaji Nagar, Bengaluru, Bangalore - 560010","phone":"XX91XX8043284808"},{"name":"Petzz","location":"Bannerghatta Main Road, Bilekahalli, Bangalore - 560076","phone":"XX91XX9620103670"},{"name":"Sanjeevini Veterinary Clini..","location":"No.379, Thimmiah Road, Padmanabhanagar, Bangalore - 560070, Near Dr.Agarwals Hospital","phone":"XX91XX9242784110"},{"name":"Jayadev Pet Clinic And Shop..","location":"No 35 Ground Floor, Hessargatta Main Road, Bagalagunte, Bangalore - 560073, Besides Sai Kalyana Mantapa","phone":"XX91XX9482231993"},{"name":"Asha Pet Clinic","location":"No 74/1, 13th Cross,Cauvery Layout,Byrasandra Main Road, Gm Palya, Bangalore - 560075, Near Back Gate Bagmane Tech Park","phone":"XX91XX80X41633800"},{"name":"Hope Veterinary Clinic","location":"No 1, Hennur Main Road, Kalyan Nagar, Bangalore - 560043, Opp Reliance Fresh","phone":"XX91XX8884884054"},{"name":"Sahana Veterinary center","location":"No.957, 2nd Cross   6th Main, 6th  Block, HMT Layout, Vidyaranyapura, Bangalore - 560097, Near  BBMP Office","phone":"XX91XX80X23646414"},{"name":"Nandi Pet Clinic","location":"No.1/14, 8th Mile Circle, Hessargatta Main Road, Bangalore - 560073, Below Reliance Fresh","phone":"XX91XX9880886377"},{"name":"Bannerghatta Pet Clinic","location":"No.73, 4th Cross,Omkar Nagar,Mico Layout,Arekere Gate, Bannerghatta Road, Bangalore - 560076, Behind Reliance Mart","phone":"XX91XX80X42046812"},{"name":"Maruthi Pet Clinic","location":"No.30, New Ring Road, Malagala, Bangalore - 560072, Opposite Vasan Eye Care","phone":"XX91XX7090049220"},{"name":"Joes Veterinary Clinic","location":"No 192/7, Kullappa Circle, Kammanahalli, Bangalore - 560084, Opposite Himalaya Pharma","phone":"XX91XX80X23331017"},{"name":"Hachi Pet Care Clinic And S..","location":"Shop No 1,214, 1st Main Road, Aecs Layout Kundanahalli, Bangalore - 560037, Behind Ganesha Temple,Next to Rudra Academy","phone":"XX91XX9164157109"},{"name":"SRS Pet Shop And Clinic","location":"No. 561, HMT Layout, Vidyaranyapura, Bangalore - 560097, Near Bangalore One and Opposite NTI Ground","phone":"XX91XX9845618798"},{"name":"Shreyas Veterinary Clinic","location":"No 5, Anjanadri Plaza Basement, 4th Cross, Girinagar, Bangalore - 560085, Near Canara Bank , Behind Radhakrishna Hospital","phone":"XX91XX080X26721726"},{"name":"Sharas Pet","location":"No 65, Kempapura Main Road, Hebbal, Bangalore - 560024, Behind Esteem Mall","phone":"XX91XX9686073913"},{"name":"Sri Veterinary Clinic","location":"No.582/1, 7th Main Road,  Vinayaka Layout, Nagarbhavi, Bangalore - 560072, Opposite Bharath Petrol Bunk","phone":"XX91XX9844045035"},{"name":"Ganesh Pet Clinic","location":"No.359, 80 Feet Road, 7 Th Cross, Telecom Layout, Jakkur Layout, Bangalore - 560064, Opp to GKVK Main Road","phone":"XX91XX7892722670"},{"name":"K 9 Vet Clinic & Grooming","location":"No 7,2nd Floor, 1st D Main Road,Ganganagar Extension, Rt Nagar, Bangalore - 560032, Near Mekri Circle","phone":"XX91XX9845075817"},{"name":"Sudheeksha Pet Clinic","location":"No. 37/38, 4th Phase Main Road, Yelahanka New Town, Bangalore - 560064, Near Manasa Trinity Hospital","phone":"XX91XX80X28561440"},{"name":"Gokul Pet Clinic & Lab","location":"No.69, MVR Complex, M S R Main Road, Mathikere, Bangalore - 560054, Opposite Canara Bank","phone":"XX91XX80X23607988"},{"name":"Amar Pets Medical Centre","location":"No.541, Church Street, HAl 3rd Stage, New Thippasandra, Bangalore - 560075, Opposite Kakade Nursing Home","phone":"XX91XX80X25282353"},{"name":"Government Veterinary Hospi..","location":"SATHANUR, SATHNUR, Bangalore - 560064, Bagalur Cross","phone":"XX91XX7025498904"},{"name":"Mowgli Animal Care","location":"No.703, 6th B Crs, 3rd Blk, Koramangala, Bangalore - 560034, Behind BDA Shopping Complex, Below Syndicate Bank","phone":"XX91XX80X25535838"},{"name":"Lifeline Pet Clinic","location":"No 57, Nelagedaranahalli Main Road, Nagasandra, Bangalore - 560073, Opp to Nanjundeshwara  Medical","phone":"XX91XX9449695858"},{"name":"Vaatsalya Veterinary Clinic","location":"No.76, West Park Road, 16th Cross, Malleswaram, Bangalore - 560003, Behind Mla Girls College","phone":"XX91XX80X23313840"},{"name":"New Pets Vet Clinic","location":"14th, 14th Main Road I Stage, 1st Stage, Kumaraswamy Layout, Bangalore - 560111","phone":"XX91XX9845107182"},{"name":"Precious Paws Veterinary Cl..","location":"Shop No.48, 1st Floor, Royal Palms Layout, Uttarahalli, Bangalore - 560061, Off Kanakapura Road","phone":"XX91XX9742543510"},{"name":"Adarsha Veterinary Clinic","location":"No.1624, East End Mn, Jayanagar 9th Block, Bangalore - 560069, Near Food Corporation","phone":"XX91XX9901846647"},{"name":"Vijay Veterinary Clinic","location":"No.3461, 1st F Cross, Rpc Layout West, Vijayanagar, Bangalore - 560040, Near Bunt Sangha","phone":"XX91XX80X23394777"},{"name":"JOES. PET.  CLINIC","location":"9th Cross, Nehru Road, Bangalore - 560033, Kullappa Circle","phone":"XX91XX80X23331017"},{"name":"Ganesh Pet Clinic","location":"No. 359, 80 Feet Road, Telecom Layout, Jakkur Layout, Bangalore - 560064, Near Shubha Sagar Hotel","phone":"XX91XX9845329169"},{"name":"Punya Pet Clinic","location":"No.18/2, 14th Cross,1st Main,Vyalikaval Main Road, Malleswaram, Bangalore - 560003, Opposite Ramani Orthopedic Centre, Near Indian Oil Petrol Bunk","phone":"XX91XX7337629259"},{"name":"KVets At Home Veterinary Se..","location":"Mysore Road, Nayandahalli, Bangalore - 560039","phone":"XX91XX9113812996"},{"name":"Petmates Companion Animal C..","location":"No 4 1st Cross, Marapa Layout, Rajarajeshwari Nagar, Bangalore - 560098, Opposited  to Prestige Temple Bells Apartment","phone":"XX91XX8050703260"},{"name":"Eclipse","location":"DIACURE DIAGNOSTICS VISHWAS PEARL #1213, 9TH CROSS 2ND PHASE ANANTH NAGAR HUSKUR GATE, Ananth Nagar, Bangalore - 560100, Near MORE SUPER MARKET","phone":"XX91XX7022345345"},{"name":"General Veterinary Clinic","location":"No.582, 2nd Cross, 9th Main, 1st Stage, Indiranagar, Bangalore - 560038, Opposite ICICI Bank","phone":""},{"name":"Vet Medix","location":"No 3, Magadi Main Road, Anjananagar, Bangalore - 560091, Near Corporation Bank","phone":"XX91XX9035009312"},{"name":"The Bark Pet Clinic","location":"No. 480, 4th Main 5th Cross 2nd Block, Rt Nagar, Bangalore - 560032, Near BDA Complex","phone":"XX91XX8754780206"},{"name":"SKS Veterinary Hospital and..","location":"No.7 Basavanpura Colony Off Banergatta Road, Bannerghatta Road, Bangalore - 560076, Near Koli From Gate","phone":"XX91XX8680070003"},{"name":"HP Pet Akshaya Nagar.","location":"#61, Sahane., Yelenahalli Main Road,7th Cross.., Akshaya Nagar,Near DLF Town Ship., Bangalore - 560069, Opposite to Poddar Jumbo Kid's.","phone":"XX91XX9448307663"},{"name":"Vetnova Pets Clinic","location":"No.62, 25th Cross, 22nd Main Road, Banashankari 2nd Stage, Bangalore - 560070, Near Pizza Hut & Bda Shopping Complex","phone":"XX91XX80X26713432"},{"name":"Herriots Vet Clinic","location":"No.872, 8th Cross, Off 20th Main, 8th Block, Koramangala, Bangalore - 560095, Near Koramangala Police Station and Behind Sagar Fast Food","phone":"XX91XX9945522667"},{"name":"Animal Care Clinic","location":"No. 1349, Srinivasaiah Road, 3rd Phase, 3rd Stage, Beml Layout, Rajarajeshwari Nagar, Bangalore - 560098, Near Beml Complex","phone":"XX91XX9342530981"},{"name":"BTM Veterinary Polyclinic","location":"No.66, 11th Main, Btm Layout 1st Stage, Bangalore - 560029, Opposite Water Tank road","phone":"XX91XX80X26781272"},{"name":"Pets Veterinary Clinic","location":"Veterinary Hospital, Murphy Town, Ulsoor, Bangalore - 560008, Near Vegetable Market","phone":"XX91XX9448275080"},{"name":"Benaka Pet Animal Clinic","location":"# 714, 19th Main Manjunatha Nagar,Woc Road, Rajajinagar, Bangalore - 560010, Near manjunatha park","phone":"XX91XX80X22929210"},{"name":"I Pet Clinic","location":"No.37/3/5, 1st Floor, Munikempanna Layout , 1st Floor,Dasarahalli Main Road, Hebbal Kempapura, Dasarahalli Hebbal, Bangalore - 560024, Opposite Inland APPARTMENT","phone":"XX91XX9845994400"},{"name":"Saras Veterinary Clinic & C..","location":"No.32, 1st Cross, Vivekananda Nagar, Banaswadi Main Road, Bangalore - 560033, Near Jaibharath Nagar","phone":"XX91XX80X25480097"},{"name":"Amruth Veterinary Care","location":"No.2/1, Kodigehalli, Bangalore - 560092, Opposite Amrutha School","phone":"XX91XX9900595033"},{"name":"Pets Plaza Clinic","location":"Pets Plaza, 8th Main 4th Block, Basaveshwara Nagar, Bangalore - 560079, Near Central Bank Of India","phone":"XX91XX8494993160"},{"name":"Rashmi Veterinary Clinic","location":"No 55, 3rd Main Rd,2nd Stage, Raj Mahal Vilas 2nd Stage, Bangalore - 560094, Nr Akai Public School,Aecs Layout","phone":"XX91XX80X23635122"},{"name":"V K Pet Clinic","location":"Doubler Road, NRI Layout, Horamavu, Bangalore - 560043, Near Sundara Anjineya Temple","phone":"XX91XX9448415724"},{"name":"Shreyas Veterinary Clinic","location":"No. 150, 1st Stage, 6th Phase, 9th Cross, West Of Cord Road, Mahaganapathi Nagar, Rajajinagar, Bangalore - 560010, Near Maha Ganapathi Nagara","phone":"XX91XX80X23356972"},{"name":"Puppy Paws Pet Clinic","location":"No.53, Noble Residency, 1st Main Road, 2nd Cross, Begur Road, Bangalore - 560068, Near SNN Raj Apartment","phone":"XX91XX9880551379"},{"name":"Shaker Pet Clinic","location":"Hesaraghatta Main Road, T Dasarahalli, Bangalore - 560057, Near 8th Mile Circle","phone":"XX91XX9880886377"},{"name":"Raos Veterinary Clinic","location":"No.170, 7th Cross, Bapuji Layout, Vijayanagar, Bangalore - 560040, Opposite Canara Bank","phone":"XX91XX80X23396032"},{"name":"Surya Pet Clinic","location":"No. 4, 1st Floor, Srinivasa Nilaya, Sumanagali Seva Ashram Road, Hebbal, Bangalore - 560024, Oppsite to HDFC ATM","phone":"XX91XX9945064174"},{"name":"Puppy Pet Clinic and Pet Sh..","location":"No 53, 2nd Cross 1st Main, Noble Residency Road, Noble Residency, Yelenahalli, Bangalore - 560076, Opp. to Snn Raj Apartments Begur Road","phone":"XX91XX9880551379"},{"name":"J K Veterinary Centre & Cli..","location":"No.162, 36th Cross, 7th Main, Jayanagar 5th Block, Bangalore - 560041, Opposite To Telephone Exchange","phone":"XX91XX80X26693671"}]